[
  {
    "id": 1,
    "name": "Withlacoochee State Trail",
    "type": "paved",
    "length_miles": 46.0,
    "surface": "asphalt",
    "features": ["Parking", "Restrooms", "Scenic", "Water"],
    "trailheads": [
      { "name": "Trilby Trailhead", "lat": 28.4412, "lng": -82.1711 },
      { "name": "Ridge Manor Trailhead", "lat": 28.5071, "lng": -82.1708 },
      { "name": "Inverness Depot", "lat": 28.8351, "lng": -82.3303 }
    ],
    "lat": 28.4412,
    "lng": -82.1711
  },
  {
    "id": 2,
    "name": "General James A. Van Fleet State Trail",
    "type": "paved",
    "length_miles": 29.0,
    "surface": "asphalt",
    "features": ["Parking", "Scenic", "Wildlife"],
    "trailheads": [
      { "name": "Mabel Trailhead", "lat": 28.3370, "lng": -81.9950 },
      { "name": "Green Pond Trailhead", "lat": 28.2485, "lng": -81.9085 },
      { "name": "Polk City Trailhead", "lat": 28.1827, "lng": -81.8234 }
    ],
    "lat": 28.3370,
    "lng": -81.9950
  },
  {
    "id": 3,
    "name": "Pinellas Trail",
    "type": "paved",
    "length_miles": 38.0,
    "surface": "asphalt",
    "features": ["Urban", "Parking", "Food", "Water"],
    "trailheads": [
      { "name": "St. Petersburg Downtown", "lat": 27.7700, "lng": -82.6400 },
      { "name": "Dunedin Trailhead", "lat": 28.0183, "lng": -82.7710 },
      { "name": "Tarpon Springs Trailhead", "lat": 28.1463, "lng": -82.7560 }
    ],
    "lat": 27.7700,
    "lng": -82.6400
  },
  {
    "id": 4,
    "name": "West Orange Trail",
    "type": "paved",
    "length_miles": 22.0,
    "surface": "asphalt",
    "features": ["Parking", "Restrooms", "Food", "Scenic"],
    "trailheads": [
      { "name": "Killarney Station", "lat": 28.5610, "lng": -81.6400 },
      { "name": "Winter Garden Downtown", "lat": 28.5653, "lng": -81.5862 },
      { "name": "Apopka Trailhead", "lat": 28.6760, "lng": -81.5150 }
    ],
    "lat": 28.5610,
    "lng": -81.6400
  },
  {
    "id": 5,
    "name": "Seminole Wekiva Trail",
    "type": "paved",
    "length_miles": 14.0,
    "surface": "asphalt",
    "features": ["Urban", "Parking", "Water"],
    "trailheads": [
      { "name": "Altamonte Trailhead", "lat": 28.6640, "lng": -81.3940 },
      { "name": "Lake Mary Trailhead", "lat": 28.7580, "lng": -81.3170 }
    ],
    "lat": 28.6640,
    "lng": -81.3940
  },
  {
    "id": 6,
    "name": "Little Econ Greenway",
    "type": "paved",
    "length_miles": 7.5,
    "surface": "asphalt",
    "features": ["Scenic", "Parking", "Water"],
    "trailheads": [
      { "name": "Blanchard Park", "lat": 28.5721, "lng": -81.2043 },
      { "name": "Forsyth Trailhead", "lat": 28.5745, "lng": -81.2305 }
    ],
    "lat": 28.5721,
    "lng": -81.2043
  },
  {
    "id": 7,
    "name": "Gainesville-Hawthorne State Trail",
    "type": "paved",
    "length_miles": 16.0,
    "surface": "asphalt",
    "features": ["Scenic", "Wildlife", "Parking"],
    "trailheads": [
      { "name": "Gainesville Trailhead", "lat": 29.6340, "lng": -82.2970 },
      { "name": "Hawthorne Trailhead", "lat": 29.5930, "lng": -82.0870 }
    ],
    "lat": 29.6340,
    "lng": -82.2970
  },
  {
    "id": 8,
    "name": "Blackwater Heritage State Trail",
    "type": "paved",
    "length_miles": 8.5,
    "surface": "asphalt",
    "features": ["Scenic", "Parking"],
    "trailheads": [
      { "name": "Milton Trailhead", "lat": 30.6320, "lng": -87.0440 },
      { "name": "Whiting Field Trailhead", "lat": 30.7090, "lng": -87.0170 }
    ],
    "lat": 30.6320,
    "lng": -87.0440
  },
  {
    "id": 9,
    "name": "Nature Coast State Trail",
    "type": "paved",
    "length_miles": 32.0,
    "surface": "asphalt",
    "features": ["Scenic", "Parking", "Water"],
    "trailheads": [
      { "name": "Chiefland Trailhead", "lat": 29.4890, "lng": -82.8590 },
      { "name": "Fanning Springs Trailhead", "lat": 29.5930, "lng": -82.9330 },
      { "name": "Cross City Trailhead", "lat": 29.6400, "lng": -83.1260 }
    ],
    "lat": 29.4890,
    "lng": -82.8590
  },
  {
    "id": 10,
    "name": "Jacksonville-Baldwin Rail Trail",
    "type": "paved",
    "length_miles": 14.5,
    "surface": "asphalt",
    "features": ["Scenic", "Parking"],
    "trailheads": [
      { "name": "Jacksonville Trailhead", "lat": 30.3210, "lng": -81.8230 },
      { "name": "Baldwin Trailhead", "lat": 30.3020, "lng": -81.9750 }
    ],
    "lat": 30.3210,
    "lng": -81.8230
  },
  {
    "id": 11,
    "name": "Florida Keys Overseas Heritage Trail",
    "type": "paved",
    "length_miles": 90.0,
    "surface": "asphalt",
    "features": ["Scenic", "Water", "Food"],
    "trailheads": [
      { "name": "Key Largo Trailhead", "lat": 25.1100, "lng": -80.4300 },
      { "name": "Marathon Trailhead", "lat": 24.7260, "lng": -81.0490 },
      { "name": "Key West Trailhead", "lat": 24.5550, "lng": -81.7800 }
    ],
    "lat": 25.1100,
    "lng": -80.4300
  },
  {
    "id": 12,
    "name": "Legacy Trail",
    "type": "paved",
    "length_miles": 18.0,
    "surface": "asphalt",
    "features": ["Scenic", "Parking", "Restrooms"],
    "trailheads": [
      { "name": "Venice Trailhead", "lat": 27.0990, "lng": -82.4480 },
      { "name": "Sarasota Trailhead", "lat": 27.2700, "lng": -82.4800 }
    ],
    "lat": 27.0990,
    "lng": -82.4480
  },
  {
    "id": 13,
    "name": "St. Marks Trail",
    "type": "paved",
    "length_miles": 20.5,
    "surface": "asphalt",
    "features": ["Scenic", "Parking"],
    "trailheads": [
      { "name": "Tallahassee Trailhead", "lat": 30.4030, "lng": -84.2470 },
      { "name": "St. Marks Trailhead", "lat": 30.2660, "lng": -84.2080 }
    ],
    "lat": 30.4030,
    "lng": -84.2470
  },
  {
    "id": 14,
    "name": "Suncoast Trail",
    "type": "paved",
    "length_miles": 42.0,
    "surface": "asphalt",
    "features": ["Scenic", "Parking"],
    "trailheads": [
      { "name": "Lutz Trailhead", "lat": 28.1500, "lng": -82.4610 },
      { "name": "Brooksville Trailhead", "lat": 28.5550, "lng": -82.3900 }
    ],
    "lat": 28.1500,
    "lng": -82.4610
  },

  {
    "id": 20,
    "name": "Santos MTB Trail System",
    "type": "mtb",
    "length_miles": 25.0,
    "surface": "dirt",
    "features": ["Technical", "Parking", "Restrooms"],
    "trailheads": [
      { "name": "Santos Trailhead", "lat": 29.1340, "lng": -82.0900 },
      { "name": "Vortex Trailhead", "lat": 29.1500, "lng": -82.1100 }
    ],
    "lat": 29.1340,
    "lng": -82.0900
  },
  {
    "id": 21,
    "name": "Alafia River MTB Trails",
    "type": "mtb",
    "length_miles": 20.0,
    "surface": "dirt",
    "features": ["Technical", "Parking", "Restrooms"],
    "trailheads": [
      { "name": "Alafia Main Trailhead", "lat": 27.7967, "lng": -82.1117 },
      { "name": "North Trailhead", "lat": 27.8100, "lng": -82.1200 }
    ],
    "lat": 27.7967,
    "lng": -82.1117
  },
  {
    "id": 22,
    "name": "Markham Park MTB Trails",
    "type": "mtb",
    "length_miles": 10.0,
    "surface": "dirt",
    "features": ["Technical", "Urban", "Parking"],
    "trailheads": [
      { "name": "Markham MTB Trailhead", "lat": 26.1900, "lng": -80.3360 }
    ],
    "lat": 26.1900,
    "lng": -80.3360
  },
  {
    "id": 23,
    "name": "Graham Swamp MTB Trails",
    "type": "mtb",
    "length_miles": 7.0,
    "surface": "dirt",
    "features": ["Technical", "Scenic"],
    "trailheads": [
      { "name": "Graham Swamp Trailhead", "lat": 29.4930, "lng": -81.1810 }
    ],
    "lat": 29.4930,
    "lng": -81.1810
  },
  {
    "id": 24,
    "name": "Balm Boyette MTB Trails",
    "type": "mtb",
    "length_miles": 15.0,
    "surface": "dirt",
    "features": ["Technical", "Remote"],
    "trailheads": [
      { "name": "Balm Boyette Trailhead", "lat": 27.7930, "lng": -82.2100 }
    ],
    "lat": 27.7930,
    "lng": -82.2100
  },

  {
    "id": 30,
    "name": "Croom WMA Gravel System",
    "type": "gravel",
    "length_miles": 40.0,
    "surface": "gravel",
    "features": ["Remote", "Wildlife"],
    "trailheads": [
      { "name": "Croom Trailhead", "lat": 28.6100, "lng": -82.1700 },
      { "name": "Tucker Hill Trailhead", "lat": 28.6500, "lng": -82.2000 }
    ],
    "lat": 28.6100,
    "lng": -82.1700
  },
  {
    "id": 31,
    "name": "Green Swamp East Gravel",
    "type": "gravel",
    "length_miles": 35.0,
    "surface": "gravel",
    "features": ["Remote", "Wildlife"],
    "trailheads": [
      { "name": "Green Swamp East Trailhead", "lat": 28.4000, "lng": -82.0500 },
      { "name": "Rock Ridge Trailhead", "lat": 28.3500, "lng": -82.0000 }
    ],
    "lat": 28.4000,
    "lng": -82.0500
  },
  {
    "id": 32,
    "name": "Tosohatchee WMA Gravel Loops",
    "type": "gravel",
    "length_miles": 30.0,
    "surface": "gravel",
    "features": ["Remote", "Wildlife"],
    "trailheads": [
      { "name": "Tosohatchee Main Trailhead", "lat": 28.5330, "lng": -80.9900 },
      { "name": "Powerline Trailhead", "lat": 28.5200, "lng": -81.0200 }
    ],
    "lat": 28.5330,
    "lng": -80.9900
  },
  {
    "id": 33,
    "name": "Three Lakes WMA Gravel",
    "type": "gravel",
    "length_miles": 28.0,
    "surface": "gravel",
    "features": ["Remote", "Wildlife"],
    "trailheads": [
      { "name": "Three Lakes Trailhead", "lat": 27.9000, "lng": -81.1000 }
    ],
    "lat": 27.9000,
    "lng": -81.1000
  },
  {
    "id": 34,
    "name": "Lake Apopka Loop Trail",
    "type": "gravel",
    "length_miles": 15.0,
    "surface": "gravel",
    "features": ["Scenic", "Wildlife"],
    "trailheads": [
      { "name": "North Shore Trailhead", "lat": 28.6500, "lng": -81.6300 },
      { "name": "Clay Island Trailhead", "lat": 28.6500, "lng": -81.7000 }
    ],
    "lat": 28.6500,
    "lng": -81.6300
  }
  {
    "id": 35,
    "name": "Richloam WMA Gravel System",
    "type": "gravel",
    "length_miles": 38.0,
    "surface": "gravel",
    "features": ["Remote", "Wildlife", "Forest Roads"],
    "trailheads": [
      { "name": "Richloam Fire Tower", "lat": 28.4710, "lng": -82.1710 },
      { "name": "Clay Sink Trailhead", "lat": 28.4300, "lng": -82.2000 }
    ],
    "lat": 28.4710,
    "lng": -82.1710
  },
  {
    "id": 36,
    "name": "Dupuis WMA Gravel Loops",
    "type": "gravel",
    "length_miles": 22.0,
    "surface": "gravel",
    "features": ["Remote", "Wildlife", "Water Crossings"],
    "trailheads": [
      { "name": "Dupuis Main Gate", "lat": 26.9400, "lng": -80.5100 },
      { "name": "Loop 2 Trailhead", "lat": 26.9600, "lng": -80.5400 }
    ],
    "lat": 26.9400,
    "lng": -80.5100
  },
  {
    "id": 37,
    "name": "Picayune Strand Gravel Roads",
    "type": "gravel",
    "length_miles": 30.0,
    "surface": "gravel",
    "features": ["Remote", "Wildlife", "Swamp"],
    "trailheads": [
      { "name": "Sabal Palm Trailhead", "lat": 26.0700, "lng": -81.5900 },
      { "name": "Mile Marker 14 Trailhead", "lat": 26.1000, "lng": -81.5600 }
    ],
    "lat": 26.0700,
    "lng": -81.5900
  },
  {
    "id": 38,
    "name": "Merritt Island Wildlife Drive Gravel",
    "type": "gravel",
    "length_miles": 7.0,
    "surface": "gravel",
    "features": ["Scenic", "Wildlife", "Birding"],
    "trailheads": [
      { "name": "Black Point Entrance", "lat": 28.6500, "lng": -80.7500 }
    ],
    "lat": 28.6500,
    "lng": -80.7500
  },
  {
    "id": 39,
    "name": "Seminole State Forest Gravel",
    "type": "gravel",
    "length_miles": 18.0,
    "surface": "gravel",
    "features": ["Forest Roads", "Wildlife"],
    "trailheads": [
      { "name": "Cassia Trailhead", "lat": 28.8600, "lng": -81.5000 },
      { "name": "Bear Pond Trailhead", "lat": 28.8300, "lng": -81.5200 }
    ],
    "lat": 28.8600,
    "lng": -81.5000
  },
  {
    "id": 40,
    "name": "Big Cypress Loop Road",
    "type": "gravel",
    "length_miles": 24.0,
    "surface": "gravel",
    "features": ["Remote", "Swamp", "Wildlife"],
    "trailheads": [
      { "name": "Loop Road East", "lat": 25.8700, "lng": -80.9900 },
      { "name": "Loop Road West", "lat": 25.8600, "lng": -81.2000 }
    ],
    "lat": 25.8700,
    "lng": -80.9900
  },
  {
    "id": 41,
    "name": "Everglades Levee Ride (Bike‑Legal Sections)",
    "type": "gravel",
    "length_miles": 20.0,
    "surface": "gravel",
    "features": ["Scenic", "Wildlife", "Remote"],
    "trailheads": [
      { "name": "Loxahatchee Trailhead", "lat": 26.5100, "lng": -80.2100 },
      { "name": "Stormwater STA Trailhead", "lat": 26.5300, "lng": -80.2600 }
    ],
    "lat": 26.5100,
    "lng": -80.2100
  },
  {
    "id": 42,
    "name": "Tallahassee Forest Mixed‑Surface Loops",
    "type": "gravel",
    "length_miles": 25.0,
    "surface": "mixed",
    "features": ["Forest Roads", "Hills", "Scenic"],
    "trailheads": [
      { "name": "Forest Entrance", "lat": 30.4700, "lng": -84.2500 }
    ],
    "lat": 30.4700,
    "lng": -84.2500
  },
  {
    "id": 43,
    "name": "Lake Louisa Gravel Loops",
    "type": "gravel",
    "length_miles": 12.0,
    "surface": "gravel",
    "features": ["Hills", "Scenic"],
    "trailheads": [
      { "name": "Lake Louisa Main Entrance", "lat": 28.5020, "lng": -81.7420 }
    ],
    "lat": 28.5020,
    "lng": -81.7420
  },
  {
    "id": 44,
    "name": "Ocala National Forest Gravel System",
    "type": "gravel",
    "length_miles": 50.0,
    "surface": "gravel",
    "features": ["Remote", "Forest Roads", "Wildlife"],
    "trailheads": [
      { "name": "Forest Road 11 Trailhead", "lat": 29.2000, "lng": -81.7000 },
      { "name": "Salt Springs Trailhead", "lat": 29.3500, "lng": -81.7300 }
    ],
    "lat": 29.2000,
    "lng": -81.7000
  },
  {
    "id": 45,
    "name": "Apalachicola Forest Gravel System",
    "type": "gravel",
    "length_miles": 40.0,
    "surface": "gravel",
    "features": ["Remote", "Forest Roads"],
    "trailheads": [
      { "name": "Silver Lake Trailhead", "lat": 30.3000, "lng": -84.5000 }
    ],
    "lat": 30.3000,
    "lng": -84.5000
  },
  {
    "id": 46,
    "name": "Amelia Earhart MTB Trails",
    "type": "mtb",
    "length_miles": 8.0,
    "surface": "dirt",
    "features": ["Urban", "Technical"],
    "trailheads": [
      { "name": "Amelia MTB Trailhead", "lat": 25.8870, "lng": -80.3040 }
    ],
    "lat": 25.8870,
    "lng": -80.3040
  },
  {
    "id": 47,
    "name": "Virginia Key MTB Trails",
    "type": "mtb",
    "length_miles": 6.0,
    "surface": "dirt",
    "features": ["Urban", "Technical", "Scenic"],
    "trailheads": [
      { "name": "Virginia Key MTB Entrance", "lat": 25.7420, "lng": -80.1600 }
    ],
    "lat": 25.7420,
    "lng": -80.1600
  },
  {
    "id": 48,
    "name": "Oleta River MTB Trails",
    "type": "mtb",
    "length_miles": 14.0,
    "surface": "dirt",
    "features": ["Technical", "Urban", "Scenic"],
    "trailheads": [
      { "name": "Oleta MTB Trailhead", "lat": 25.9230, "lng": -80.1440 }
    ],
    "lat": 25.9230,
    "lng": -80.1440
  },
  {
    "id": 49,
    "name": "Snyder Park MTB Trails",
    "type": "mtb",
    "length_miles": 5.0,
    "surface": "dirt",
    "features": ["Urban", "Technical"],
    "trailheads": [
      { "name": "Snyder MTB Trailhead", "lat": 26.0850, "lng": -80.1610 }
    ],
    "lat": 26.0850,
    "lng": -80.1610
  },
  {
    "id": 50,
    "name": "Lakeland Trail System (Carter Road)",
    "type": "mtb",
    "length_miles": 12.0,
    "surface": "dirt",
    "features": ["Technical", "Scenic"],
    "trailheads": [
      { "name": "Carter Road Trailhead", "lat": 27.9650, "lng": -81.9000 }
    ],
    "lat": 27.9650,
    "lng": -81.9000
  },
  {
    "id": 51,
    "name": "Santos Vortex Freeride Area",
    "type": "mtb",
    "length_miles": 3.0,
    "surface": "dirt",
    "features": ["Freeride", "Technical"],
    "trailheads": [
      { "name": "Vortex Trailhead", "lat": 29.1500, "lng": -82.1100 }
    ],
    "lat": 29.1500,
    "lng": -82.1100
  },
  {
    "id": 52,
    "name": "Markham Park Flow Trails",
    "type": "mtb",
    "length_miles": 4.0,
    "surface": "dirt",
    "features": ["Flow", "Technical"],
    "trailheads": [
      { "name": "Markham Flow Trailhead", "lat": 26.1900, "lng": -80.3360 }
    ],
    "lat": 26.1900,
    "lng": -80.3360
  },
  {
    "id": 53,
    "name": "Sunrise MTB Trails",
    "type": "mtb",
    "length_miles": 6.0,
    "surface": "dirt",
    "features": ["Urban", "Technical"],
    "trailheads": [
      { "name": "Sunrise MTB Trailhead", "lat": 26.1660, "lng": -80.2800 }
    ],
    "lat": 26.1660,
    "lng": -80.2800
  },
  {
    "id": 54,
    "name": "GFT (Gravel Florida Trail) North Section",
    "type": "gravel",
    "length_miles": 45.0,
    "surface": "mixed",
    "features": ["Adventure", "Remote"],
    "trailheads": [
      { "name": "Palatka Trailhead", "lat": 29.6480, "lng": -81.6510 },
      { "name": "Rodman Trailhead", "lat": 29.5400, "lng": -81.7800 }
    ],
    "lat": 29.6480,
    "lng": -81.6510
  },
  {
    "id": 55,
    "name": "GFT (Gravel Florida Trail) South Section",
    "type": "gravel",
    "length_miles": 40.0,
    "surface": "mixed",
    "features": ["Adventure", "Remote"],
    "trailheads": [
      { "name": "Ocklawaha Trailhead", "lat": 29.2000, "lng": -81.9000 },
      { "name": "Weirsdale Trailhead", "lat": 28.9800, "lng": -81.9300 }
    ],
    "lat": 29.2000,
    "lng": -81.9000
  },
  {
    "id": 56,
    "name": "Clermont Chain of Lakes Trail",
    "type": "mixed",
    "length_miles": 10.0,
    "surface": "mixed",
    "features": ["Hills", "Scenic"],
    "trailheads": [
      { "name": "Waterfront Park", "lat": 28.5490, "lng": -81.7620 }
    ],
    "lat": 28.5490,
    "lng": -81.7620
  },
  {
    "id": 57,
    "name": "Fort Clinch Multi‑Use Trail",
    "type": "mixed",
    "length_miles": 6.0,
    "surface": "mixed",
    "features": ["Scenic", "Forest"],
    "trailheads": [
      { "name": "Fort Clinch Entrance", "lat": 30.6710, "lng": -81.4600 }
    ],
    "lat": 30.6710,
    "lng": -81.4600
  },
  {
    "id": 58,
    "name": "San Felasco Hammock MTB Trails",
    "type": "mtb",
    "length_miles": 25.0,
    "surface": "dirt",
    "features": ["Technical", "Forest"],
    "trailheads": [
      { "name": "San Felasco Trailhead", "lat": 29.7370, "lng": -82.4410 }
    ],
    "lat": 29.7370,
    "lng": -82.4410
  },
  {
    "id": 59,
    "name": "Hanna Park MTB Trails",
    "type": "mtb",
    "length_miles": 10.0,
    "surface": "dirt",
    "features": ["Technical", "Scenic"],
    "trailheads": [
      { "name": "Hanna Park Trailhead", "lat": 30.3700, "lng": -81.4100 }
    ],
    "lat": 30.3700,
    "lng": -81.4100
  },
  {
    "id": 60,
    "name": "Gulf Islands Gravel Loop",
    "type": "gravel",
    "length_miles": 12.0,
    "surface": "gravel",
    "features": ["Scenic", "Coastal"],
    "trailheads": [
      { "name": "Fort Pickens Trailhead", "lat": 30.3270, "lng": -87.2920 }
    ],
    "lat": 30.3270,
    "lng": -87.2920
  }
]

